{"key": "QLD|4825", "state": "QLD", "postcode": "4825", "lat": -20.7657486, "lon": 139.3658986, "source": "nominatim:postcode-centroid", "display_name": "4825, Mount Isa, Mount Isa City, Queensland, Australia"}
{"key": "NSW|2179", "state": "NSW", "postcode": "2179", "lat": -33.9414718, "lon": 150.8114908, "source": "nominatim:postcode-centroid", "display_name": "2179, Austral, Sydney, Liverpool City Council, New South Wales, Australia"}
{"key": "NSW|2763", "state": "NSW", "postcode": "2763", "lat": -33.7283536, "lon": 150.8974346, "source": "nominatim:postcode-centroid", "display_name": "2763, Quakers Hill, Sydney, Blacktown City Council, New South Wales, Australia"}
{"key": "VIC|3008", "state": "VIC", "postcode": "3008", "lat": -37.8192741, "lon": 144.9412667, "source": "nominatim:postcode-centroid", "display_name": "3008, Docklands, Melbourne, City of Melbourne, Victoria, Australia"}
{"key": "QLD|4074", "state": "QLD", "postcode": "4074", "lat": -27.549011, "lon": 152.9224042, "source": "nominatim:postcode-centroid", "display_name": "4074, Mount Ommaney, Greater Brisbane, Queensland, Australia"}
{"key": "QLD|4110", "state": "QLD", "postcode": "4110", "lat": -27.6135235, "lon": 153.0118504, "source": "nominatim:postcode-centroid", "display_name": "4110, Pallara, Greater Brisbane, Queensland, Australia"}
{"key": "TAS|7249", "state": "TAS", "postcode": "7249", "lat": -41.4621706, "lon": 147.1542073, "source": "nominatim:postcode-centroid", "display_name": "7249, Kings Meadows, Launceston, City of Launceston, Tasmania, Australia"}
{"key": "SA|5113", "state": "SA", "postcode": "5113", "lat": -34.7013203, "lon": 138.6729477, "source": "nominatim:postcode-centroid", "display_name": "5113, Elizabeth North, Adelaide, City of Playford, South Australia, Australia"}
{"key": "NSW|2092", "state": "NSW", "postcode": "2092", "lat": -33.7849634, "lon": 151.2410487, "source": "nominatim:postcode-centroid", "display_name": "2092, Seaforth, Northern Beaches, Sydney, Northern Beaches Council, New South Wales, Australia"}
{"key": "SA|5106", "state": "SA", "postcode": "5106", "lat": -34.7894598, "lon": 138.6401013, "source": "nominatim:postcode-centroid", "display_name": "5106, Parafield, Adelaide, City of Salisbury, South Australia, Australia"}
{"key": "NSW|2765", "state": "NSW", "postcode": "2765", "lat": -33.6966249, "lon": 150.818288, "source": "nominatim:postcode-centroid", "display_name": "2765, Marsden Park, Sydney, Blacktown City Council, New South Wales, Australia"}
{"key": "SA|5010", "state": "SA", "postcode": "5010", "lat": -34.8650701, "lon": 138.5703273, "source": "nominatim:postcode-centroid", "display_name": "5010, Regency Park, Adelaide, City of Port Adelaide Enfield, South Australia, Australia"}
{"key": "VIC|3851", "state": "VIC", "postcode": "3851", "lat": -38.0515291, "lon": 147.5457785, "source": "nominatim:postcode-centroid", "display_name": "3851, Goon Nure, Shire of East Gippsland, Victoria, Australia"}
{"key": "NSW|2324", "state": "NSW", "postcode": "2324", "lat": -32.7350802, "lon": 151.8316427, "source": "nominatim:postcode-centroid", "display_name": "2324, Ferodale, Port Stephens Council, New South Wales, Australia"}
{"key": "SA|5259", "state": "SA", "postcode": "5259", "lat": -35.4073648, "lon": 139.366788, "source": "nominatim:postcode-centroid", "display_name": "5259, Wellington East, Coorong District Council, South Australia, Australia"}
{"key": "SA|5082", "state": "SA", "postcode": "5082", "lat": -34.8915988, "lon": 138.5966386, "source": "nominatim:postcode-centroid", "display_name": "5082, Prospect, Adelaide, City of Prospect, South Australia, Australia"}
{"key": "VIC|3579", "state": "VIC", "postcode": "3579", "lat": -35.7286774, "lon": 143.8975529, "source": "nominatim:postcode-centroid", "display_name": "3579, Kerang, Shire of Gannawarra, Victoria, Australia"}
{"key": "QLD|4871", "state": "QLD", "postcode": "4871", "lat": -17.59098, "lon": 144.9344139, "source": "nominatim:postcode-centroid", "display_name": "4871, Munderra, Mareeba Shire, Queensland, Australia"}
{"key": "WA|6169", "state": "WA", "postcode": "6169", "lat": -32.3283762, "lon": 115.7588393, "source": "nominatim:postcode-centroid", "display_name": "6169, Warnbro, City of Rockingham, Western Australia, Australia"}
{"key": "VIC|3175", "state": "VIC", "postcode": "3175", "lat": -38.002518, "lon": 145.2046079, "source": "nominatim:postcode-centroid", "display_name": "3175, Dandenong, Melbourne, City of Greater Dandenong, Victoria, Australia"}
{"key": "SA|5095", "state": "SA", "postcode": "5095", "lat": -34.8175577, "lon": 138.6109919, "source": "nominatim:postcode-centroid", "display_name": "5095, Mawson Lakes, Adelaide, City of Salisbury, South Australia, Australia"}
{"key": "SA|5072", "state": "SA", "postcode": "5072", "lat": -34.9054004, "lon": 138.6801892, "source": "nominatim:postcode-centroid", "display_name": "5072, Magill, Adelaide, Campbelltown City Council, South Australia, Australia"}
{"key": "NSW|2178", "state": "NSW", "postcode": "2178", "lat": -33.8791555, "lon": 150.7970574, "source": "nominatim:postcode-centroid", "display_name": "2178, Kemps Creek, Sydney, Liverpool City Council, New South Wales, Australia"}
{"key": "WA|6440", "state": "WA", "postcode": "6440", "lat": -28.1759092, "lon": 123.375901, "source": "nominatim:postcode-centroid", "display_name": "6440, Cosmo Newbery, Shire Of Laverton, Western Australia, Australia"}
{"key": "WA|6507", "state": "WA", "postcode": "6507", "lat": -30.7816585, "lon": 115.6072241, "source": "nominatim:postcode-centroid", "display_name": "6507, Yathroo, Shire Of Dandaragan, Western Australia, Australia"}
{"key": "NSW|2148", "state": "NSW", "postcode": "2148", "lat": -33.751895, "lon": 150.8923302, "source": "nominatim:postcode-centroid", "display_name": "2148, Marayong, Sydney, Blacktown City Council, New South Wales, Australia"}
{"key": "QLD|4014", "state": "QLD", "postcode": "4014", "lat": -27.3618585, "lon": 153.0918979, "source": "nominatim:postcode-centroid", "display_name": "4014, Nudgee, Greater Brisbane, Queensland, Australia"}
{"key": "QLD|4818", "state": "QLD", "postcode": "4818", "lat": -19.2448149, "lon": 146.667648, "source": "nominatim:postcode-centroid", "display_name": "4818, Deeragun, Townsville City, Queensland, Australia"}
{"key": "NSW|2516", "state": "NSW", "postcode": "2516", "lat": -34.3363905, "lon": 150.9172271, "source": "nominatim:postcode-centroid", "display_name": "2516, Bulli, Wollongong City Council, New South Wales, Australia"}
{"key": "WA|6233", "state": "WA", "postcode": "6233", "lat": -33.2552767, "lon": 115.7357382, "source": "nominatim:postcode-centroid", "display_name": "6233, Leschenault, Shire Of Harvey, Western Australia, Australia"}
{"key": "NSW|2170", "state": "NSW", "postcode": "2170", "lat": -33.9315286, "lon": 150.9089582, "source": "nominatim:postcode-centroid", "display_name": "2170, Liverpool, Sydney, Liverpool City Council, New South Wales, Australia"}
